[
  {
    "id": 1,
    "name": "Access Plus Capital",
    "languages": [
      "Spanish",
      "Hmong",
      "English",
      "Punjabi"
    ],
    "geographicAreas": "Fresno, Kern, Kings, Madera, Merced, San Benito, Stanislaus, Tulare",
    "hasStatewideService": false,
    "specificCommunities": [],
    "areasOfService": [
      1,
      2,
      3,
      4,
      5,
      6
    ],
    "streetAddress": "1920 Mariposa Street",
    "city": "Fresno",
    "county": "Fresno",
    "zipCode": 93721,
    "fullAddress": "1920 Mariposa St. Fresno, CA, 93721",
    "latitude": 36.73441,
    "longitude": -119.7918,
    "email": "Loans@acccesspluscapital.com",
    "website": "https://www.accesspluscapital.com",
    "phoneNumber": "(559) 263-1351",
    "socialMedia": "@accesspluscap"
  },
  {
    "id": 2,
    "name": "Agriculture & Land-Based Training Association (ALBA)",
    "languages": [
      "Spanish",
      "English"
    ],
    "geographicAreas": "Monterey, San Benito, Santa Cruz",
    "hasStatewideService": false,
    "specificCommunities": [],
    "areasOfService": [
      2,
      5,
      7
    ],
    "streetAddress": "1700 Old Stage Road",
    "city": "Salinas",
    "county": "Monterey",
    "zipCode": 93908,
    "fullAddress": "1700 Old Stage Rd. Salinas, CA, 93908",
    "latitude": 36.60947,
    "longitude": -121.53437,
    "email": "info@albafarmers.org",
    "website": "https://www.albafarmers.org",
    "phoneNumber": "(831) 758-1469",
    "socialMedia": "FB, Instagram"
  },
  {
    "id": 3,
    "name": "Alameda SBDC",
    "languages": [
      "Spanish",
      "Mandarin",
      "Vietnamese",
      "English",
      "Hindi",
      "Urdu",
      "Punjabi",
      "American Sign"
    ],
    "geographicAreas": "Alameda",
    "hasStatewideService": false,
    "specificCommunities": [],
    "areasOfService": [
      1,
      2,
      3,
      4,
      8,
      5,
      6,
      9,
      10,
      11,
      12,
      13,
      7
    ],
    "streetAddress": "39399 Cherry St.",
    "city": "Newark",
    "county": "Alameda",
    "zipCode": 94560,
    "fullAddress": "39399 Cherry St.  Newark, CA 94560",
    "latitude": 37.5170005,
    "longitude": -122.0042679,
    "email": "acsbdc@ohlone.edu",
    "website": "https://www.acsbdc.org",
    "phoneNumber": "(510) 516-4118",
    "socialMedia": "FB @alamedacountysbdc, Twitter, @AlamedaSBDC, LinkedIn alameda-county-small-business-developmentcenter, Instagram https://www.instagram.com/acsbdc/"
  },
  {
    "id": 4,
    "name": "Alliance SBDC",
    "languages": [
      "Spanish",
      "Mandarin",
      "Cantonese",
      "Tagalog",
      "Vietnamese",
      "Korean",
      "English",
      "Japanese",
      "Taiwanese"
    ],
    "geographicAreas": "San Diego",
    "hasStatewideService": false,
    "specificCommunities": [],
    "areasOfService": [
      1,
      2,
      3,
      4,
      5,
      12,
      13
    ],
    "streetAddress": "7675 Dagget St, Ste 340",
    "city": "San Diego",
    "county": "San Diego",
    "zipCode": 92111,
    "fullAddress": "7675 Dagget St, Ste 340 San Diego, CA 92111",
    "latitude": 32.8231954,
    "longitude": -117.158506,
    "email": "sbdc@abasd.org",
    "website": "https://www.sdivsbdc.org",
    "phoneNumber": "(858) 277-2822",
    "socialMedia": "https://www.facebook.com/ABASD"
  },
  {
    "id": 5,
    "name": "American Indian Chamber Education Fund PTAC",
    "languages": [
      "English"
    ],
    "geographicAreas": "Alameda, Alpine, Amador, Butte, Calaveras, Colusa, Contra Costa, Del Norte, El Dorado, Fresno, Glenn, Humboldt, Imperial, Inyo, Kern, Kings, Klamath, Lake, Lassen, Los Angeles, Madera, Marin, Mariposa, Mendocino, Merced, Modoc, Mono, Monterey, Napa, Nevada, Orange, Placer, Plumas, Riverside, Sacramento, San Benito, San Bernardino, San Diego, San Francisco, San Joaquin, San Luis Obispo, San Mateo, Santa Barbara, Santa Clara, Santa Cruz, Shasta, Sierra, Siskiyou, Solano, Sonoma, Stanislaus, Sutter, Tehama, Trinity, Tulare, Tuolumne, Ventura, Yolo, Yuba",
    "hasStatewideService": true,
    "specificCommunities": [
      1
    ],
    "areasOfService": [
      1,
      2,
      4,
      8,
      6,
      12
    ],
    "streetAddress": "5912 Bolsa Avenue, #108",
    "city": "Huntington Beach",
    "county": "Orange",
    "zipCode": 92649,
    "fullAddress": "5912 Bolsa Avenue, #108 Huntington Beach, CA 92649",
    "latitude": 33.7439556,
    "longitude": -118.0256467,
    "email": "venessa.gleich@aicccal.org",
    "website": "https://aicef-ptac.org/",
    "phoneNumber": "(213) 448-2333",
    "socialMedia": "http://aicef-ptac.org/"
  },
  {
    "id": 6,
    "name": "A New America Women's Business Center - Oakland",
    "languages": [
      "Spanish",
      "English"
    ],
    "geographicAreas": "Alameda",
    "hasStatewideService": false,
    "specificCommunities": [
      2
    ],
    "areasOfService": [
      1,
      2,
      4,
      5,
      12,
      13
    ],
    "streetAddress": "1470 Fruitvale Ave.",
    "city": "Oakland",
    "county": "Alameda",
    "zipCode": 94601,
    "fullAddress": "1470 Fruitvale Ave.  Oakland, CA 94601",
    "latitude": 37.7784748,
    "longitude": -122.2251041,
    "email": "dneel@anewamerica.org",
    "website": "https://www.anewamerica.org",
    "phoneNumber": "(510) 532-5240",
    "socialMedia": "@anewamicrobiz; @anewamerica.microbiz"
  },
  {
    "id": 7,
    "name": "A New America Women's Business Center - San Jose",
    "languages": [
      "Spanish",
      "Vietnamese",
      "English"
    ],
    "geographicAreas": "Santa Clara",
    "hasStatewideService": false,
    "specificCommunities": [
      2
    ],
    "areasOfService": [
      1,
      2,
      4,
      5,
      12,
      13
    ],
    "streetAddress": "210 N. 4th ST - Ste. #205",
    "city": "San Jose",
    "county": "Santa Clara",
    "zipCode": 95112,
    "fullAddress": "210 N. 4th ST - Ste. #205 San Jose , CA 95112",
    "latitude": 37.3413208,
    "longitude": -121.8897911,
    "email": "alockett@anewamerica.org",
    "website": "https://www.anewamerica.org",
    "phoneNumber": "(408) 326-2669",
    "socialMedia": "@anewamicrobiz; @anewamerica.microbiz"
  },
  {
    "id": 8,
    "name": "Bixel Exchange SBDC",
    "languages": [
      "Spanish",
      "Mandarin",
      "Korean",
      "Farsi",
      "English",
      "Russian",
      "Portuguese"
    ],
    "geographicAreas": "Los Angeles, Santa Barbara, Ventura",
    "hasStatewideService": false,
    "specificCommunities": [],
    "areasOfService": [
      1,
      2,
      3,
      4,
      8,
      5,
      6,
      9,
      10,
      12,
      13,
      7
    ],
    "streetAddress": "350 S Bixel Street",
    "city": "Los Angeles",
    "county": "Los Angeles",
    "zipCode": 91016,
    "fullAddress": "350 S Bixel Street Los Angeles, CA 91016",
    "latitude": 34.0569915,
    "longitude": -118.2596973,
    "email": "bixelexchange@lachamber.com",
    "website": "https://keeplaworking.org",
    "phoneNumber": "(213) 580-7578",
    "socialMedia": "@BixelExchange on Instagram, Twitter and Facebook."
  },
  {
    "id": 9,
    "name": "Butte College SBDC",
    "languages": [
      "Spanish",
      "Hmong",
      "English"
    ],
    "geographicAreas": "Butte, Glenn, Tehama",
    "hasStatewideService": false,
    "specificCommunities": [],
    "areasOfService": [
      1,
      2,
      4,
      8,
      5,
      6,
      9,
      10,
      11,
      12,
      13,
      7
    ],
    "streetAddress": "2480 Notre Dame Blvd.,",
    "city": "Chico",
    "county": "Butte",
    "zipCode": 95928,
    "fullAddress": "2480 Notre Dame Blvd., Chico, CA 95928",
    "latitude": 39.7155964,
    "longitude": -121.7959348,
    "email": "konuwaso@butte.edu",
    "website": "https://www.buttecollegesbdc.com",
    "phoneNumber": "(530) 895-9017",
    "socialMedia": ""
  },
  {
    "id": 10,
    "name": "Cal Coastal SBDC",
    "languages": [
      "Spanish",
      "English"
    ],
    "geographicAreas": "Monterey, San Benito",
    "hasStatewideService": false,
    "specificCommunities": [],
    "areasOfService": [
      1,
      2,
      3,
      4,
      8,
      5,
      6,
      9,
      10,
      11,
      12,
      13,
      7
    ],
    "streetAddress": "106 Lincoln Avenue",
    "city": "Salinas",
    "county": "Monterey",
    "zipCode": 93901,
    "fullAddress": "106 Lincoln Avenue Salinas, CA 93901",
    "latitude": 36.6763201,
    "longitude": -121.6578315,
    "email": "sbdc@calcoastal.org",
    "website": "https://CalCoastalSBDC.com",
    "phoneNumber": "(831) 676-2017",
    "socialMedia": "Twitter: @CalCoastalSBDC; Facebook: @CALCOASTAL.SBDC; Instagram: calcoastal.sbdc"
  },
  {
    "id": 11,
    "name": "Cal Poly CIE SBDC",
    "languages": [
      "English"
    ],
    "geographicAreas": "",
    "hasStatewideService": false,
    "specificCommunities": [],
    "areasOfService": [
      1,
      2,
      3,
      4,
      8,
      5,
      6,
      9,
      10,
      11,
      12,
      13,
      7
    ],
    "streetAddress": "872 Higuera St.",
    "city": "San Luis Obispo",
    "county": "San Luis Obispo",
    "zipCode": 93401,
    "fullAddress": "872 Higuera St. San Luis Obispo , CA 93401",
    "latitude": 35.2806081,
    "longitude": -120.6625449,
    "email": "Slosbdc@gmail.com",
    "website": "https://sbdc.calpoly.edu",
    "phoneNumber": "(805) 756-5171",
    "socialMedia": "Facebook: https://www.facebook.com/CalPolySBDC/  Instagram: https://www.instagram.com/calpolysbdc/  LinkedIn: https://www.linkedin.com/company/calpolyciesbdc"
  },
  {
    "id": 12,
    "name": "California Capital Women's Business Center",
    "languages": [
      "English"
    ],
    "geographicAreas": "El Dorado, Nevada, Placer, Sacramento, San Joaquin, Sutter, Yolo, Yuba",
    "hasStatewideService": false,
    "specificCommunities": [
      2
    ],
    "areasOfService": [
      1,
      2,
      3,
      8,
      5,
      6,
      9,
      11,
      12,
      13,
      7
    ],
    "streetAddress": "1792 Tribute Road Suite 270",
    "city": "Sacramento",
    "county": "Sacramento",
    "zipCode": 95815,
    "fullAddress": "1792 Tribute Road Suite 270 Sacramento, CA 95815",
    "latitude": 38.5982141,
    "longitude": -121.4456882,
    "email": "womensbusinesscenter@cacapital.org",
    "website": "https://www.cacapital.org",
    "phoneNumber": "(916) 442-1729",
    "socialMedia": "Facebook: @Cacapitalfdc"
  },
  {
    "id": 13,
    "name": "California Manufacturing Technology Consulting (CMTC)",
    "languages": [
      "Spanish"
    ],
    "geographicAreas": "Alameda, Alpine, Amador, Butte, Calaveras, Colusa, Contra Costa, Del Norte, El Dorado, Fresno, Glenn, Humboldt, Imperial, Inyo, Kern, Kings, Klamath, Lake, Lassen, Los Angeles, Madera, Marin, Mariposa, Mendocino, Merced, Modoc, Mono, Monterey, Napa, Nevada, Orange, Placer, Plumas, Riverside, Sacramento, San Benito, San Bernardino, San Diego, San Francisco, San Joaquin, San Luis Obispo, San Mateo, Santa Barbara, Santa Clara, Santa Cruz, Shasta, Sierra, Siskiyou, Solano, Sonoma, Stanislaus, Sutter, Tehama, Trinity, Tulare, Tuolumne, Ventura, Yolo, Yuba",
    "hasStatewideService": true,
    "specificCommunities": [
      3
    ],
    "areasOfService": [
      1,
      2,
      8,
      5,
      10,
      11,
      12,
      13,
      7
    ],
    "streetAddress": "690 Knox Street, Suite 200, Torrance, CA",
    "city": "Torrance",
    "county": "Los Angeles",
    "zipCode": 90502,
    "fullAddress": "690 Knox Street, Suite 200, Torrance, CA Torrance, CA 90502",
    "latitude": 33.8537327,
    "longitude": -118.2876517,
    "email": "samia@cmtc.com",
    "website": "https://www.cmtc.com",
    "phoneNumber": "(310) 263-3060",
    "socialMedia": "Facebook: https://www.facebook.com/CMTCSolutions  Twitter: https://twitter.com/CMTCSolutions  Instagram: https://www.instagram.com/cmtc_california"
  },
  {
    "id": 14,
    "name": "Capital Region SBDC",
    "languages": [
      "Spanish",
      "English",
      "Punjabi"
    ],
    "geographicAreas": "Sacramento, Yolo, Yuba, Sutter, Colusa, El Dorado, and Placer",
    "hasStatewideService": false,
    "specificCommunities": [],
    "areasOfService": [
      1,
      2,
      3,
      4,
      8,
      5,
      6,
      9,
      10,
      12,
      13,
      7
    ],
    "streetAddress": "1 Capital Mall",
    "city": "Sacramento",
    "county": "Sacramento",
    "zipCode": 95814,
    "fullAddress": "1 Capital Mall  Sacramento , CA 95814",
    "latitude": 38.5802572,
    "longitude": -121.5059973,
    "email": "sbdc@metrochamber.org",
    "website": "https://www.capitalregionsbdc.com",
    "phoneNumber": "(916) 319-4268",
    "socialMedia": "FB/LinkedIn: Capital Region SBDC ; Twitter: @SacramentoSBDC"
  },
  {
    "id": 15,
    "name": "Central CA SBDC Network",
    "languages": [
      "Spanish",
      "Mandarin",
      "Arabic",
      "English",
      "Japanese",
      "Punjabi",
      "Portuguese"
    ],
    "geographicAreas": "Stanislaus, Tuolomne, Mariposa, Merced, Madera, Fresno, Tulare, Kings, Kern, Inyo, Mono, San Luis Obispo, San Benito, Monterey",
    "hasStatewideService": false,
    "specificCommunities": [],
    "areasOfService": [
      1,
      2,
      3,
      4,
      8,
      5,
      6,
      9,
      10,
      11,
      12,
      13,
      7
    ],
    "streetAddress": "1735 M St",
    "city": "Merced",
    "county": "Merced",
    "zipCode": 95340,
    "fullAddress": "1735 M St Merced, CA 95340",
    "latitude": 37.3028197,
    "longitude": -120.4846359,
    "email": "casbdc@ucmerced.edu",
    "website": "https://centralcasbdc.com/",
    "phoneNumber": "(888) 842-3415",
    "socialMedia": "https://www.facebook.com/CenCASBDC/"
  },
  {
    "id": 16,
    "name": "Coachella Valley SBDC",
    "languages": [
      "Spanish",
      "English"
    ],
    "geographicAreas": "Riverside, San Bernardino",
    "hasStatewideService": false,
    "specificCommunities": [],
    "areasOfService": [
      1,
      2,
      3,
      8,
      5,
      12,
      13,
      7
    ],
    "streetAddress": "44-199 Monroe Street",
    "city": "Coachella",
    "county": "Riverside",
    "zipCode": 92201,
    "fullAddress": "44-199 Monroe Street, Coachella, CA, 92201",
    "latitude": 33.73323,
    "longitude": -116.23373,
    "email": "cvsmallbusiness@ociesbdc.com",
    "website": "https://ociesmallbusiness.org",
    "phoneNumber": "(760) 848-4096",
    "socialMedia": "@ociesbdc"
  },
  {
    "id": 17,
    "name": "Coachella Valley Women's Business Center",
    "languages": [
      "Spanish",
      "English"
    ],
    "geographicAreas": "Riverside",
    "hasStatewideService": false,
    "specificCommunities": [
      2
    ],
    "areasOfService": [
      1,
      2,
      4,
      8,
      5,
      10,
      12,
      13,
      7
    ],
    "streetAddress": "77807 Flora Road, Suite A",
    "city": "Palm Desert",
    "county": "Riverside",
    "zipCode": 92211,
    "fullAddress": "77807 Flora Road, Suite A Palm Desert, CA 92211",
    "latitude": 33.7680359,
    "longitude": -116.3062148,
    "email": "kscanlan@cvwbc.org",
    "website": "https://www.cvwbc.org",
    "phoneNumber": "(760) 345-9200",
    "socialMedia": "www.facebook.com/CVWBC; https://twitter.com/CVWBC; https://www.instagram.com/cvwbc/"
  },
  {
    "id": 18,
    "name": "College of the Canyons SBDC",
    "languages": [
      "Spanish",
      "Farsi",
      "Armenian",
      "English",
      "Hindi",
      "Punjabi",
      "Greek",
      "American Sign",
      "Pahari",
      "Gujarati"
    ],
    "geographicAreas": "Los Angeles",
    "hasStatewideService": false,
    "specificCommunities": [],
    "areasOfService": [
      1,
      2,
      4,
      8,
      5,
      6,
      9,
      10,
      11,
      12,
      13
    ],
    "streetAddress": "26455 Rockwell Canyon Road, University Center Building - Room 272",
    "city": "Santa Clarita",
    "county": "Los Angeles",
    "zipCode": 91355,
    "fullAddress": "26455 Rockwell Canyon Road, University Center Building - Room 272 Santa Clarita, CA 91355",
    "latitude": 34.4043812,
    "longitude": -118.5705894,
    "email": "sbdc@canyons.edu",
    "website": "https://www.cocsbdc.org",
    "phoneNumber": "(661) 362-5900",
    "socialMedia": "@sbdcnola"
  },
  {
    "id": 19,
    "name": "Connect SBDC",
    "languages": [
      "English"
    ],
    "geographicAreas": "San Diego",
    "hasStatewideService": false,
    "specificCommunities": [],
    "areasOfService": [
      1,
      2,
      3,
      9
    ],
    "streetAddress": "4110 Campus Point Ct",
    "city": "San Diego",
    "county": "San Diego",
    "zipCode": 92121,
    "fullAddress": "4110 Campus Point Ct San Diego, CA 92121",
    "latitude": 32.8919727,
    "longitude": -117.2259976,
    "email": "springboard@connect.org",
    "website": "https://www.sdivsbdc.org",
    "phoneNumber": "(858) 964-1300",
    "socialMedia": "https://www.facebook.com/ConnectInSD"
  },
  {
    "id": 20,
    "name": "Contra Costa SBDC",
    "languages": [
      "Spanish",
      "Mandarin",
      "Cantonese",
      "Vietnamese",
      "Farsi",
      "English",
      "Japanese",
      "Punjabi",
      "Portuguese",
      "American Sign",
      "French"
    ],
    "geographicAreas": "Contra Costa",
    "hasStatewideService": false,
    "specificCommunities": [],
    "areasOfService": [
      1,
      2,
      3,
      4,
      8,
      5,
      6,
      9,
      10,
      11,
      12,
      13,
      7
    ],
    "streetAddress": "4071 Port Chicago Hwy #250",
    "city": "Concord",
    "county": "Contra Costa",
    "zipCode": 94520,
    "fullAddress": "4071 Port Chicago Hwy #250 Concord, CA 94520",
    "latitude": 38.0147002,
    "longitude": -122.0255857,
    "email": "admin@contracostasbdc.org",
    "website": "https://contracostasbdc.org",
    "phoneNumber": "(925) 222-5228",
    "socialMedia": "californiasbdc"
  },
  {
    "id": 21,
    "name": "CSU Bakersfield SBDC",
    "languages": [
      "Spanish",
      "Korean",
      "English"
    ],
    "geographicAreas": "Kern, Inyo, Mono",
    "hasStatewideService": false,
    "specificCommunities": [],
    "areasOfService": [
      1,
      2,
      3,
      4,
      8,
      5,
      6,
      9,
      10,
      11,
      12,
      13,
      7
    ],
    "streetAddress": "1631 17th Street, Suite 200",
    "city": "Bakersfied",
    "county": "Kern",
    "zipCode": 93301,
    "fullAddress": "1631 17th Street, Suite 200 Bakersfied, CA 93301",
    "latitude": 35.3741822,
    "longitude": -119.0209806,
    "email": "sbdc@csub.edu",
    "website": "https://csubsbdc.com",
    "phoneNumber": "(661) 654-2856",
    "socialMedia": "https://www.facebook.com/CSUBakersfieldSBDC/"
  },
  {
    "id": 22,
    "name": "East County SBDC",
    "languages": [
      "Spanish",
      "English"
    ],
    "geographicAreas": "San Diego",
    "hasStatewideService": false,
    "specificCommunities": [],
    "areasOfService": [
      1,
      2,
      3,
      4,
      8,
      5,
      6,
      11,
      12,
      13,
      7
    ],
    "streetAddress": "127 East Lexington",
    "city": "El Cajon",
    "county": "San Diego",
    "zipCode": 92020,
    "fullAddress": "127 East Lexington El Cajon, CA 92020",
    "latitude": 32.7924769,
    "longitude": -116.9616962,
    "email": "danielle.sparks@eastcountyedc.org",
    "website": "https://www.sdivsbdc.org",
    "phoneNumber": "(619) 258-3670",
    "socialMedia": "https://www.facebook.com/EastCountyEDC"
  },
  {
    "id": 23,
    "name": "Economic Development Collaboartive SBDC",
    "languages": [
      "Spanish",
      "Mandarin",
      "Cantonese",
      "Tagalog",
      "English",
      "French"
    ],
    "geographicAreas": "Ventura, Santa Barbara",
    "hasStatewideService": false,
    "specificCommunities": [],
    "areasOfService": [
      1,
      2,
      3,
      4,
      8,
      5,
      6,
      9,
      10,
      11,
      12,
      13,
      7
    ],
    "streetAddress": "4001 Mission Oaks Blvd  Suite A-1",
    "city": "Camarillo",
    "county": "Ventura",
    "zipCode": 93012,
    "fullAddress": "4001 Mission Oaks Blvd  Suite A-1 Camarillo, CA 93012",
    "latitude": 34.2168562,
    "longitude": -119.0166234,
    "email": "info@edcsbdc.org",
    "website": "https://edcollaborative.com/",
    "phoneNumber": "(805) 409-9159",
    "socialMedia": "https://www.facebook.com/EDCollaborative/"
  },
  {
    "id": 24,
    "name": "El Camino College SBDC",
    "languages": [
      "Spanish",
      "English",
      "French"
    ],
    "geographicAreas": "Los Angeles",
    "hasStatewideService": false,
    "specificCommunities": [],
    "areasOfService": [
      1,
      2,
      3,
      4,
      8,
      5,
      6,
      10,
      12,
      13,
      7
    ],
    "streetAddress": "13430 Hawthorne Blvd.",
    "city": "Hawthorne",
    "county": "Los Angeles",
    "zipCode": 902050,
    "fullAddress": "13430 Hawthorne Blvd. Hawthorne, CA 902050",
    "latitude": 33.9102551,
    "longitude": -118.3522511,
    "email": "eccsbdc@elcamino.edu",
    "website": "https://southbaysbdc.org",
    "phoneNumber": "(310) 225-8277",
    "socialMedia": "facebook.com/southbaysbdc"
  },
  {
    "id": 25,
    "name": "El Pajaro Community Development Corporation",
    "languages": [
      "Spanish",
      "English"
    ],
    "geographicAreas": "Monterey, San Benito, Santa Cruz",
    "hasStatewideService": false,
    "specificCommunities": [],
    "areasOfService": [
      1,
      2,
      4,
      5,
      9,
      10,
      11,
      12,
      13
    ],
    "streetAddress": "23 East Beach Street Suite 209",
    "city": "Watsonville",
    "county": "Santa Cruz",
    "zipCode": 95073,
    "fullAddress": "23 East Beach Street Suite 209 Watsonville, CA 95073",
    "latitude": 36.9108058,
    "longitude": -121.7563887,
    "email": "info@elpajarocdc.org",
    "website": "https://www.elpajarocdc.org",
    "phoneNumber": "(831) 722-1224",
    "socialMedia": "@elpajarocdc (Facebook, Twitter)"
  },
  {
    "id": 26,
    "name": "EPIC SBDC at UC, Riverside",
    "languages": [
      "Spanish",
      "English"
    ],
    "geographicAreas": "Riverside, San Bernardino",
    "hasStatewideService": false,
    "specificCommunities": [],
    "areasOfService": [
      1,
      2,
      3,
      8,
      5,
      9,
      11,
      12,
      13
    ],
    "streetAddress": "3403 10th Street, suite 120",
    "city": "Riverside",
    "county": "Riverside",
    "zipCode": 92501,
    "fullAddress": "3403 10th Street, suite 120, Riverside, CA 92501",
    "latitude": 33.9785285,
    "longitude": -117.3723998,
    "email": "scott.brovsky@ucr.edu",
    "website": "https://ociesmallbusiness.org",
    "phoneNumber": "(951) 468-5026",
    "socialMedia": "@ociesbdc"
  },
  {
    "id": 27,
    "name": "Export SBDC at San Diego World Trade Center",
    "languages": [
      "Spanish",
      "Mandarin",
      "English",
      "Japanese"
    ],
    "geographicAreas": "San Diego",
    "hasStatewideService": false,
    "specificCommunities": [],
    "areasOfService": [
      1,
      2,
      10
    ],
    "streetAddress": "530 B St, 7th Floor",
    "city": "San Diego",
    "county": "San Diego",
    "zipCode": 92101,
    "fullAddress": "530 B St, 7th Floor San Diego, CA 92101",
    "latitude": 32.7180744,
    "longitude": -117.1596088,
    "email": "lc@sandiegobusiness.org",
    "website": "https://www.sdivsbdc.org",
    "phoneNumber": "(619) 234-8484",
    "socialMedia": "https://twitter.com/WTCSanDiego"
  },
  {
    "id": 28,
    "name": "Fresno Area Hispanic Foundation",
    "languages": [
      "Spanish",
      "English"
    ],
    "geographicAreas": "Fresno, Kern, Kings, Madera, Merced, San Joaquin, Stanislaus, Tulare",
    "hasStatewideService": false,
    "specificCommunities": [],
    "areasOfService": [
      1,
      2,
      3,
      4,
      8,
      5,
      10,
      12
    ],
    "streetAddress": "1444 Fulton St",
    "city": "Fresno",
    "county": "Fresno County",
    "zipCode": 93721,
    "fullAddress": "1444 Fulton St Fresno, CA 93721",
    "latitude": 36.7388788,
    "longitude": -119.7952114,
    "email": "Incubator@fresnodbh.org",
    "website": "https://www.fresnoahf.org",
    "phoneNumber": "(559) 222-8705",
    "socialMedia": "Facebook: @fresnoahf, Twitter: @fresnoahf,  Instagram: @fresnoahf"
  },
  {
    "id": 29,
    "name": "Hispanic Satellite and Silicon Valley SBDC",
    "languages": [
      "Spanish",
      "Mandarin",
      "Tagalog",
      "Vietnamese",
      "English",
      "Taiwanese",
      "Portuguese"
    ],
    "geographicAreas": "Santa Clara",
    "hasStatewideService": false,
    "specificCommunities": [],
    "areasOfService": [
      1,
      2,
      3,
      8,
      5,
      6,
      10,
      12,
      7
    ],
    "streetAddress": "1887 Monterey Rd, Suite 215",
    "city": "San Jose",
    "county": "Santa Clara",
    "zipCode": 95112,
    "fullAddress": "1887 Monterey Rd, Suite 215 San Jose, CA 95112",
    "latitude": 37.3081846,
    "longitude": -121.8673236,
    "email": "connie@sbdchc.org",
    "website": "https://sbdchc.org  and svsbdc.org",
    "phoneNumber": "(408) 385-9800",
    "socialMedia": "facebook/sbdcsiliconvly"
  },
  {
    "id": 30,
    "name": "Imperial Valley SBDC",
    "languages": [
      "Spanish",
      "English"
    ],
    "geographicAreas": "Imperial",
    "hasStatewideService": false,
    "specificCommunities": [],
    "areasOfService": [
      1,
      2,
      3,
      4,
      8,
      5,
      6,
      10,
      11,
      12,
      13,
      7
    ],
    "streetAddress": "2415 Imperial Business Parkway Ste A",
    "city": "Imperial",
    "county": "Imperial",
    "zipCode": 92251,
    "fullAddress": "2415 Imperial Business Parkway Ste A Imperial, CA 92251",
    "latitude": 32.826666,
    "longitude": -115.5765041,
    "email": "meredith@imperialalliance.org",
    "website": "https://www.sdivsbdc.org",
    "phoneNumber": "(760) 312-9800",
    "socialMedia": "https://www.facebook.com/IVSBDC"
  },
  {
    "id": 31,
    "name": "Indian Dispute Resolution Services, Inc.",
    "languages": [
      "English"
    ],
    "geographicAreas": "Alameda, Alpine, Amador, Butte, Calaveras, Colusa, Contra Costa, Del Norte, El Dorado, Fresno, Glenn, Humboldt, Imperial, Inyo, Kern, Kings, Klamath, Lake, Lassen, Los Angeles, Madera, Marin, Mariposa, Mendocino, Merced, Modoc, Mono, Monterey, Napa, Nevada, Orange, Placer, Plumas, Riverside, Sacramento, San Benito, San Bernardino, San Diego, San Francisco, San Joaquin, San Luis Obispo, San Mateo, Santa Barbara, Santa Clara, Santa Cruz, Shasta, Sierra, Siskiyou, Solano, Sonoma, Stanislaus, Sutter, Tehama, Trinity, Tulare, Tuolumne, Ventura, Yolo, Yuba",
    "hasStatewideService": true,
    "specificCommunities": [
      1
    ],
    "areasOfService": [
      1,
      2,
      8,
      5,
      6,
      12
    ],
    "streetAddress": "P.O. Box 877",
    "city": "Plymouth",
    "county": "Amador",
    "zipCode": 95669,
    "fullAddress": "P.O. Box 877 Plymouth, CA 95669",
    "latitude": 38.4816371,
    "longitude": -120.846785,
    "email": "info@idrsinc.org",
    "website": "https://www.nativebiz.org",
    "phoneNumber": "(916) 482-5800",
    "socialMedia": "https://www.facebook.com/idrsacornproject, https://www.instagram.com/idrs_acorn_project/"
  },
  {
    "id": 32,
    "name": "Inland Empire SBDC",
    "languages": [
      "Spanish",
      "English"
    ],
    "geographicAreas": "Riverside, San Bernardino",
    "hasStatewideService": false,
    "specificCommunities": [],
    "areasOfService": [
      1,
      2,
      3,
      4,
      8,
      5,
      6,
      12,
      13
    ],
    "streetAddress": "3780 Market Street",
    "city": "Riverside",
    "county": "Riverside",
    "zipCode": 92501,
    "fullAddress": "3780 Market Street, Riverside, CA 92591",
    "latitude": 33.9827248,
    "longitude": -117.3754429,
    "email": "pnolta@iesmallbusiness.com",
    "website": "https://ociemsallbusiness.org",
    "phoneNumber": "(951) 781-2345",
    "socialMedia": "@ociesbdc"
  },
  {
    "id": 33,
    "name": "Inland Empire Women's Business Center",
    "languages": [
      "Spanish",
      "English"
    ],
    "geographicAreas": "Riverside, San Bernardino",
    "hasStatewideService": false,
    "specificCommunities": [
      2
    ],
    "areasOfService": [
      1,
      2,
      8,
      5,
      12,
      13
    ],
    "streetAddress": "1003 E. Cooley Drive, Suite 109",
    "city": "Colton",
    "county": "San Bernardino",
    "zipCode": 92324,
    "fullAddress": "1003 E. Cooley Drive, Suite 109 Colton, CA 92324",
    "latitude": 34.0549285,
    "longitude": -117.3106863,
    "email": "mskiljan@iewbc.org",
    "website": "https://www.iewbc.org",
    "phoneNumber": "(909) 890-1242",
    "socialMedia": "Instagram is @iewbc  Twitter is @IEWBC1 Facebook @iewbc"
  },
  {
    "id": 34,
    "name": "International Rescue Committee SBDC",
    "languages": [
      "Spanish",
      "Tagalog",
      "Farsi",
      "Arabic",
      "Hmong",
      "English",
      "Urdu",
      "Punjabi",
      "Portuguese",
      "French",
      "Congo"
    ],
    "geographicAreas": "San Diego",
    "hasStatewideService": false,
    "specificCommunities": [],
    "areasOfService": [
      1,
      2,
      3,
      4,
      13
    ],
    "streetAddress": "5348 University Ave #205",
    "city": "San Diego",
    "county": "San Diego",
    "zipCode": 92105,
    "fullAddress": "5348 University Ave #205 San Diego, CA 92105",
    "latitude": 32.7494586,
    "longitude": -117.0811682,
    "email": "adriana.taboada@rescue.org",
    "website": "https://www.sdivsbdc.org",
    "phoneNumber": "(619) 440-6208",
    "socialMedia": "https://www.facebook.com/IRCsandiego"
  },
  {
    "id": 35,
    "name": "LA County PTAC",
    "languages": [
      "Spanish",
      "Korean",
      "English"
    ],
    "geographicAreas": "Los Angeles",
    "hasStatewideService": false,
    "specificCommunities": [],
    "areasOfService": [
      1,
      2,
      4,
      6
    ],
    "streetAddress": "133 North Sunol Drive",
    "city": "East Los Angeles",
    "county": "Los Angeles",
    "zipCode": 90063,
    "fullAddress": "133 North Sunol Drive  East Los Angeles, CA 90063",
    "latitude": 34.0371502,
    "longitude": -118.1792959,
    "email": "ptac@dcba.lacounty.gov",
    "website": "https://dcba.lacounty.gov/ptac/",
    "phoneNumber": "(323) 881-3964",
    "socialMedia": "@LACoSmallBiz"
  },
  {
    "id": 36,
    "name": "Launchpad SBDC",
    "languages": [
      "English"
    ],
    "geographicAreas": "Orange and Inland Empire",
    "hasStatewideService": false,
    "specificCommunities": [],
    "areasOfService": [
      1,
      3,
      5,
      9
    ],
    "streetAddress": "65 Enterprise",
    "city": "Aliso Viejo",
    "county": "Orange",
    "zipCode": 92656,
    "fullAddress": "65 Enterprise, Aliso Viejo, CA 92656",
    "latitude": 33.5828674,
    "longitude": -117.7277625,
    "email": "jc@octaneoc.org",
    "website": "https://ociesmallbusiness.org",
    "phoneNumber": "(949) 330-6569",
    "socialMedia": "@ociesbdc"
  },
  {
    "id": 37,
    "name": "Long Beach SBDC",
    "languages": [
      "Spanish",
      "Korean",
      "English"
    ],
    "geographicAreas": "Los Angeles",
    "hasStatewideService": false,
    "specificCommunities": [],
    "areasOfService": [
      1,
      2,
      3,
      4,
      8,
      5,
      6,
      9,
      10,
      11,
      12,
      13,
      7
    ],
    "streetAddress": "4900 East Conant Street, Building O-2",
    "city": "Long Beach",
    "county": "Los Angeles",
    "zipCode": 90808,
    "fullAddress": "4900 East Conant Street, Building O-2 Long Beach, CA 90808",
    "latitude": 33.8245336,
    "longitude": -118.1354463,
    "email": "drosenfeld@lbcc.edu",
    "website": "https://www.longbeachsbdc.org",
    "phoneNumber": "(562) 938-5100",
    "socialMedia": "@LongBeachSBDC"
  },
  {
    "id": 38,
    "name": "Los Angeles Regional SBDC Lead Center",
    "languages": [
      "Spanish",
      "Tagalog",
      "Farsi",
      "English",
      "Khmer",
      "French"
    ],
    "geographicAreas": "Los Angeles, Santa Barbara, Ventura",
    "hasStatewideService": false,
    "specificCommunities": [],
    "areasOfService": [
      1,
      2,
      3,
      4,
      8,
      5,
      6,
      9,
      10,
      11,
      12,
      13,
      7
    ],
    "streetAddress": "4900 East Conant Street",
    "city": "Long Beach",
    "county": "Los Angeles",
    "zipCode": 90808,
    "fullAddress": "4900 East Conant Street Long Beach, CA 90808",
    "latitude": 33.8245336,
    "longitude": -118.1354463,
    "email": "mchacon@smallbizla.org",
    "website": "https://smallbizla.org/",
    "phoneNumber": "(866) 588-7232",
    "socialMedia": "Twitter: @SBDCLosAngeles , Facebook: Los Angeles Regional SBDC Network @sbdclosangeles , LinkedIn: Los Angeles Regional SBDC Network"
  },
  {
    "id": 39,
    "name": "LTSC API Small Business Program Women's Business Center",
    "languages": [
      "Spanish",
      "Mandarin",
      "Cantonese",
      "Tagalog",
      "Korean",
      "English",
      "Japanese",
      "Khmer"
    ],
    "geographicAreas": "Los Angeles",
    "hasStatewideService": false,
    "specificCommunities": [
      2
    ],
    "areasOfService": [
      1,
      2,
      3,
      4,
      8,
      5,
      6,
      10,
      11,
      12,
      13,
      7
    ],
    "streetAddress": "231 E 3rd Street",
    "city": "Los Angeles",
    "county": "Los Angeles",
    "zipCode": 90013,
    "fullAddress": "231 E 3rd Street Los Angeles, CA 90013",
    "latitude": 34.0484039,
    "longitude": -118.2435712,
    "email": "smallbiz@apisbp.org",
    "website": "https://www.apisbp.org",
    "phoneNumber": "(213) 473-1605",
    "socialMedia": "T & FB: APISBP"
  },
  {
    "id": 40,
    "name": "Main Street Launch",
    "languages": [
      "Spanish",
      "English"
    ],
    "geographicAreas": "Alameda, San Francisco, San Joaquin",
    "hasStatewideService": false,
    "specificCommunities": [],
    "areasOfService": [
      1,
      2
    ],
    "streetAddress": "2101 Webster Street, Suite 1200",
    "city": "Oakland",
    "county": "Alameda",
    "zipCode": 94612,
    "fullAddress": "2101 Webster Street, Suite 1200 Oakland, CA 94612",
    "latitude": 37.8102801,
    "longitude": -122.2660091,
    "email": "Jessika@mainstreetlaunch.org",
    "website": "https://www.mainstreetlaunch.org",
    "phoneNumber": "(510) 763-4297",
    "socialMedia": "#MainStLaunch"
  },
  {
    "id": 41,
    "name": "Marin SBDC",
    "languages": [
      "Spanish",
      "English",
      "French"
    ],
    "geographicAreas": "Marin",
    "hasStatewideService": false,
    "specificCommunities": [],
    "areasOfService": [
      1,
      2,
      3,
      4,
      8,
      5,
      9,
      10,
      11,
      12,
      13,
      7
    ],
    "streetAddress": "50 Acacia Ave",
    "city": "San Rafael",
    "county": "Marin",
    "zipCode": 94901,
    "fullAddress": "50 Acacia Ave  San Rafael , CA 94901",
    "latitude": 37.9798523,
    "longitude": -122.5134504,
    "email": "Matthew@marinsbdc.org",
    "website": "https://Www.marinsbdc.org",
    "phoneNumber": "(415) 482-1819",
    "socialMedia": "Marin SBDC or Small Business Development Center"
  },
  {
    "id": 42,
    "name": "Mendocino WBC",
    "languages": [
      "Spanish"
    ],
    "geographicAreas": "Mendocino",
    "hasStatewideService": false,
    "specificCommunities": [],
    "areasOfService": [
      1,
      2,
      3,
      4,
      8,
      5,
      9,
      12,
      13,
      7
    ],
    "streetAddress": "345 N Franklin St.",
    "city": "Fort Bragg",
    "county": "Mendocino",
    "zipCode": 95437,
    "fullAddress": "345 N Franklin St., Fort Bragg, CA 95437",
    "latitude": 39.4448042,
    "longitude": -123.8046451,
    "email": "info@westcenter.org",
    "website": "https://www.westcenter.org/womens-business-center",
    "phoneNumber": "(707) 964-7571",
    "socialMedia": "https://www.facebook.com/Mendowomensbusinesscenter"
  },
  {
    "id": 43,
    "name": "Mission Community Services Corporation Women's Business Center",
    "languages": [
      "Spanish",
      "English"
    ],
    "geographicAreas": "Kern, Monterey, San Luis Obispo",
    "hasStatewideService": false,
    "specificCommunities": [
      2
    ],
    "areasOfService": [
      1,
      2,
      3,
      4,
      8,
      5,
      6,
      11,
      12,
      13,
      7
    ],
    "streetAddress": "71 Zaca Lane #131",
    "city": "San Luis Obispo",
    "county": "San Luis Obispo",
    "zipCode": 93401,
    "fullAddress": "71 Zaca Lane #131 San Luis Obispo, CA 93401",
    "latitude": 35.2509659,
    "longitude": -120.6731477,
    "email": "info@mcscorp.org",
    "website": "https://www.mcscorp.org",
    "phoneNumber": "(805) 595-1357",
    "socialMedia": "https://www.facebook.com/MissionCommunityServicesCorp"
  },
  {
    "id": 44,
    "name": "Napa Sonoma SBDC",
    "languages": [
      "Spanish",
      "English"
    ],
    "geographicAreas": "Napa, Sonoma",
    "hasStatewideService": false,
    "specificCommunities": [],
    "areasOfService": [
      1,
      2,
      3,
      4,
      8,
      5,
      6,
      11,
      12,
      13,
      7
    ],
    "streetAddress": "2277 Napa Vallejo Hwy., Bldg 3300",
    "city": "Napa",
    "county": "Napa",
    "zipCode": 94558,
    "fullAddress": "2277 Napa Vallejo Hwy., Bldg 3300 Napa, CA 94558",
    "latitude": 38.2740455,
    "longitude": -122.2751567,
    "email": "mcervantes@napavalley.edu",
    "website": "https://www.napasonomasbdc.org",
    "phoneNumber": "(707) 256-7250",
    "socialMedia": "https://www.facebook.com/NapaSonomaSBDC/"
  },
  {
    "id": 45,
    "name": "New Economics for Women - Women's Business Center",
    "languages": [
      "Spanish",
      "Armenian",
      "Russian"
    ],
    "geographicAreas": "Los Angeles",
    "hasStatewideService": false,
    "specificCommunities": [
      2
    ],
    "areasOfService": [
      1,
      2,
      4,
      8,
      5,
      6,
      11,
      12,
      13,
      7
    ],
    "streetAddress": "7500 Alabama Ave",
    "city": "Canoga Park",
    "county": "Los Angeles",
    "zipCode": 91303,
    "fullAddress": "7500 Alabama Ave Canoga Park, CA 91303",
    "latitude": 34.2080185,
    "longitude": -118.5988327,
    "email": "WBC@neworg.us",
    "website": "https://www.NEW-WBC.ORG",
    "phoneNumber": "(213) 483-2060",
    "socialMedia": "https://www.facebook.com/newwbc"
  },
  {
    "id": 46,
    "name": "Norcal PTAC",
    "languages": [
      "Tagalog"
    ],
    "geographicAreas": "Alameda, Contra Costa, Del Norte, Humboldt, Marin, Mendocino, Napa, San Francisco, San Mateo, Santa Clara, Shasta, Siskiyou, Solano, Sonoma, Trinity",
    "hasStatewideService": false,
    "specificCommunities": [],
    "areasOfService": [
      1,
      2,
      4,
      6
    ],
    "streetAddress": "1 Harpst St",
    "city": "Arcata",
    "county": "Humboldt",
    "zipCode": 95521,
    "fullAddress": "1 Harpst St Arcata, CA 95521",
    "latitude": 40.8744392,
    "longitude": -124.0790979,
    "email": "info@norcalptac org",
    "website": "https://www.norcalptac.org",
    "phoneNumber": "(707) 267-7561",
    "socialMedia": "www.facebook.com/norcalptac"
  },
  {
    "id": 47,
    "name": "Norcal SBDC Finance Center",
    "languages": [
      "Spanish",
      "Vietnamese",
      "Farsi",
      "Arabic",
      "English",
      "Hindi",
      "Punjabi",
      "French"
    ],
    "geographicAreas": "",
    "hasStatewideService": false,
    "specificCommunities": [],
    "areasOfService": [
      1,
      2,
      3,
      4,
      8,
      5,
      6,
      9,
      10,
      11,
      12,
      13,
      7
    ],
    "streetAddress": "705 Gold Lake Drive, Suite 250",
    "city": "Folsom",
    "county": "Sacramento",
    "zipCode": 95630,
    "fullAddress": "705 Gold Lake Drive, Suite 250   Folsom, CA 95630",
    "latitude": 38.6776655,
    "longitude": -121.1793684,
    "email": "loans@asksbdc.com or https://nc.ecenterdirect.com/signup",
    "website": "https://asksbdc.com",
    "phoneNumber": "(916) 234-6551",
    "socialMedia": "FB: NorCal SBDC Finance Center"
  },
  {
    "id": 48,
    "name": "Norcal SBDC Lead Center",
    "languages": [
      "Spanish",
      "Mandarin",
      "Cantonese",
      "Vietnamese",
      "Farsi",
      "Arabic",
      "Hmong",
      "English",
      "Japanese",
      "Hindi",
      "Urdu",
      "Punjabi",
      "Portuguese",
      "American Sign",
      "French"
    ],
    "geographicAreas": "Alameda, Alpine, Amador, Butte, Calaveras, Colusa, Contra Costa, Del Norte, El Dorado, Glenn, Humboldt, Lake, Lassen, Marin, Mendocino, Modoc, Napa, Nevada, Placer, Plumas, Sacramento, San Francisco, San Joaquin, San Mateo, Santa Clara, Santa Cruz, Shasta, Sierra, Siskiyou, Solano, Sonoma, Sutter, Tehama, Trinity, Yolo, Yuba",
    "hasStatewideService": false,
    "specificCommunities": [],
    "areasOfService": [
      1,
      2,
      3,
      4,
      8,
      5,
      6,
      9,
      10,
      11,
      12,
      13,
      7
    ],
    "streetAddress": "416 3rd Street",
    "city": "Eureka",
    "county": "Humboldt",
    "zipCode": 95501,
    "fullAddress": "416 3rd Street Eureka, CA 95501",
    "latitude": 40.8034547,
    "longitude": -124.1669196,
    "email": "intakes@norcalsbdc.org",
    "website": "https://norcalsbdc.org",
    "phoneNumber": "833-ASK-SBDC or 707-633-8107",
    "socialMedia": "Facebook @asksbdc ; Instagram @asksbdc; YouTube youtube.com/asksbdc; Twitter @californiasbdc; Linkedin / https://www.linkedin.com/company/norcalsbdc"
  },
  {
    "id": 49,
    "name": "North San Diego SBDC",
    "languages": [
      "Spanish",
      "English",
      "Hindi"
    ],
    "geographicAreas": "San Diego",
    "hasStatewideService": false,
    "specificCommunities": [],
    "areasOfService": [
      1,
      2,
      3,
      4,
      8,
      5,
      6,
      9,
      10,
      11,
      12,
      13,
      7
    ],
    "streetAddress": "2075 Las Palmas Dr",
    "city": "Carlsbad",
    "county": "San Diego",
    "zipCode": 92011,
    "fullAddress": "2075 Las Palmas Dr Carlsbad, CA 92011",
    "latitude": 33.1169868,
    "longitude": -117.2769413,
    "email": "centerinfo@miracosta.edu",
    "website": "https://www.SDIVSBDC.org",
    "phoneNumber": "(760) 795-8740",
    "socialMedia": "https://www.facebook.com/NORTHSANDIEGOSBDC"
  },
  {
    "id": 50,
    "name": "OCHCC SBDC",
    "languages": [
      "Spanish",
      "English"
    ],
    "geographicAreas": "Orange, Riverside, San Bernardino",
    "hasStatewideService": false,
    "specificCommunities": [],
    "areasOfService": [
      1,
      2,
      3,
      5,
      6
    ],
    "streetAddress": "1 Banting",
    "city": "Irvine",
    "county": "Orange",
    "zipCode": 92618,
    "fullAddress": "1 Banting, Irvine, CA 92618",
    "latitude": 33.6584298,
    "longitude": -117.7609751,
    "email": "reubenfranco@ochcc.com",
    "website": "https://ociesmallbusiness.com",
    "phoneNumber": "(949) 433-3131",
    "socialMedia": "@ociesbdc"
  },
  {
    "id": 51,
    "name": "OCIE SBDC - Lead Center (CSUF)",
    "languages": [
      "Spanish",
      "Mandarin",
      "Cantonese",
      "Vietnamese",
      "Farsi",
      "Arabic",
      "English",
      "Japanese",
      "French"
    ],
    "geographicAreas": "Orange, Riverside, San Bernardino",
    "hasStatewideService": false,
    "specificCommunities": [],
    "areasOfService": [
      1,
      2,
      3,
      4,
      8,
      5,
      10,
      11,
      12,
      13
    ],
    "streetAddress": "1 Banting",
    "city": "Irvine",
    "county": "Orange",
    "zipCode": 92618,
    "fullAddress": "1 Banting, Irvine, CA 92618",
    "latitude": 33.6584298,
    "longitude": -117.7609751,
    "email": "sbdcsend@gmail.com",
    "website": "https://ociesmallbusiness.com",
    "phoneNumber": "(657) 278-1801",
    "socialMedia": "@ociesbdc"
  },
  {
    "id": 52,
    "name": "PACE Women's Business Center",
    "languages": [
      "Spanish",
      "Mandarin",
      "Cantonese",
      "Tagalog",
      "Vietnamese",
      "Korean",
      "English",
      "Japanese",
      "Taiwanese",
      "French"
    ],
    "geographicAreas": "Los Angeles",
    "hasStatewideService": false,
    "specificCommunities": [
      2
    ],
    "areasOfService": [
      1,
      2,
      3,
      4,
      8,
      5,
      6,
      9,
      10,
      11,
      12,
      13,
      7
    ],
    "streetAddress": "1055 Wilshire Blvd., Ste. 900B",
    "city": "Los Angeles",
    "county": "Los Angeles",
    "zipCode": 90017,
    "fullAddress": "1055 Wilshire Blvd., Ste. 900B, Los Angeles, CA, 90017",
    "latitude": 34.0521042,
    "longitude": -118.2626198,
    "email": "sdo@pacela.org",
    "website": "https://pacelabdc.org/pacewbc/",
    "phoneNumber": "(213) 353-9400",
    "socialMedia": "https://www.facebook.com/sharer/sharer.php?u=http%3A%2F%2Fpacelabdc.org%2Fpacewbc%2F&t=WBC; https://twitter.com/intent/tweet?source=http://pacelabdc.org/pacewbc/&text=WBC:http://pacelabdc.org/pacewbc/; https://www.instagram.com/pacewbc/"
  },
  {
    "id": 53,
    "name": "Pacific Asian Consortium in Employment",
    "languages": [
      "Spanish",
      "Mandarin",
      "Cantonese",
      "Tagalog",
      "Vietnamese",
      "Korean",
      "Armenian",
      "English",
      "Hindi",
      "Taiwanese",
      "Khmer",
      "French"
    ],
    "geographicAreas": "Imperial, Los Angeles, Orange, Riverside, San Bernardino, San Diego, Ventura",
    "hasStatewideService": false,
    "specificCommunities": [],
    "areasOfService": [
      1,
      2,
      3,
      4,
      8,
      5,
      6,
      9,
      10,
      11,
      12,
      13,
      7
    ],
    "streetAddress": "1055 Wilshire Boulevard, Ste. 900B",
    "city": "Los Angeles, CA",
    "county": "Los Angeles",
    "zipCode": 90017,
    "fullAddress": "1055 Wilshire Boulevard, Ste. 900B, Los Angeles, CA 90017",
    "latitude": 34.0521042,
    "longitude": -118.2626198,
    "email": "Abarrera@pacela.org",
    "website": "https://www.pacela.org",
    "phoneNumber": "(213) 353-9400",
    "socialMedia": "Twitter - @PACELABusiness, FB - PACE Business Development Center, IG - @pacelabusiness"
  },
  {
    "id": 54,
    "name": "Pacific Coast Regional (PCR) SBDC",
    "languages": [
      "Spanish",
      "Arabic",
      "English"
    ],
    "geographicAreas": "Los Angeles",
    "hasStatewideService": false,
    "specificCommunities": [],
    "areasOfService": [
      1,
      2,
      3,
      4,
      8,
      5,
      6,
      12,
      7
    ],
    "streetAddress": "3255 Wilshire Blvd.,Suite 1501, Los Angeles, CA 90010",
    "city": "Los Angeles",
    "county": "Los Angeles",
    "zipCode": 90010,
    "fullAddress": "",
    "latitude": 34.062321,
    "longitude": -118.29319,
    "email": "info@pcrsbdc.org",
    "website": "https://pcrsbdc.org/",
    "phoneNumber": "(213) 674-2696",
    "socialMedia": "Instagram @pcrsbdcla Twitter - @pcrsbdc Facebook - @sbdcpcr"
  },
  {
    "id": 55,
    "name": "Pasadena City College SBDC",
    "languages": [
      "Spanish",
      "English"
    ],
    "geographicAreas": "Los Angeles",
    "hasStatewideService": false,
    "specificCommunities": [],
    "areasOfService": [
      1,
      2,
      3,
      4,
      8,
      5,
      9,
      11,
      12,
      13,
      7
    ],
    "streetAddress": "3035 E. Foothill Blvd., Room 122",
    "city": "Pasadena",
    "county": "Los Angeles",
    "zipCode": 91107,
    "fullAddress": "3035 E. Foothill Blvd., Room 122 Pasadena, CA 91107",
    "latitude": 34.15087,
    "longitude": -118.08624,
    "email": "sbdc@pasadena.edu",
    "website": "https://www.pccsbdc.org",
    "phoneNumber": "(626) 585-3105",
    "socialMedia": "https://www.facebook.com/pasadenasbdc/, @pasadenasbdc"
  },
  {
    "id": 56,
    "name": "Pasadena MBDA Business Center",
    "languages": [
      "Spanish",
      "Mandarin",
      "Cantonese",
      "Korean"
    ],
    "geographicAreas": "Los Angeles",
    "hasStatewideService": false,
    "specificCommunities": [
      4
    ],
    "areasOfService": [
      1,
      2,
      4,
      8,
      5,
      6,
      10,
      12
    ],
    "streetAddress": "177 East Colorado Blvd., Suite 200",
    "city": "Pasadena",
    "county": "Los Angeles",
    "zipCode": 91105,
    "fullAddress": "177 East Colorado Blvd., Suite 200 Pasadena, CA 91105",
    "latitude": 34.1461677,
    "longitude": -118.1471029,
    "email": "tana@pasadenambdacenter.com",
    "website": "https://www.mbda.gov/businesscenters/pasadena",
    "phoneNumber": "(909) 315-3339",
    "socialMedia": "@asianinc"
  },
  {
    "id": 57,
    "name": "Rancho Santiago - Santa Ana SBDC",
    "languages": [
      "Spanish",
      "English"
    ],
    "geographicAreas": "Orange",
    "hasStatewideService": false,
    "specificCommunities": [],
    "areasOfService": [
      1,
      2,
      3,
      8,
      12,
      13
    ],
    "streetAddress": "1300 South Bristol Street",
    "city": "Santa Ana",
    "county": "Orange",
    "zipCode": 92704,
    "fullAddress": "1300 South Bristol Street, Santa Ana, CA 92704",
    "latitude": 33.7295816,
    "longitude": -117.8852581,
    "email": "oc_sbdc@rsccd.edu",
    "website": "https://ociesmallbusiness.org",
    "phoneNumber": "(714) 564-5200",
    "socialMedia": "@ociesbdc"
  },
  {
    "id": 58,
    "name": "Renaissance Women's Business Center",
    "languages": [
      "Spanish"
    ],
    "geographicAreas": "San Francisco",
    "hasStatewideService": false,
    "specificCommunities": [
      2
    ],
    "areasOfService": [
      1,
      2,
      4,
      8,
      5,
      12,
      13
    ],
    "streetAddress": "275 5th Street",
    "city": "San Francisco",
    "county": "San Francisco",
    "zipCode": 94103,
    "fullAddress": "275 5th Street  San Francisco, CA 94103",
    "latitude": 37.7807301,
    "longitude": -122.4035928,
    "email": "wbc@rencenter.org",
    "website": "https://www.rencenter.org/womens-business-center/",
    "phoneNumber": "(415) 348-6227",
    "socialMedia": "https://twitter.com/rencenter_, https://www.instagram.com/rencenter/, https://www.facebook.com/RenaissanceEntrepreneurshipCenter"
  },
  {
    "id": 59,
    "name": "Riverside Community College District, PTAC",
    "languages": [
      "English"
    ],
    "geographicAreas": "",
    "hasStatewideService": false,
    "specificCommunities": [],
    "areasOfService": [
      1,
      2,
      3,
      4,
      8,
      5,
      12,
      13
    ],
    "streetAddress": "3801 Market Street",
    "city": "Riverside",
    "county": "Riverside",
    "zipCode": 92501,
    "fullAddress": "3801 Market Street  Riverside, CA 92501",
    "latitude": 33.9823584,
    "longitude": -117.3762746,
    "email": "https://rccpac.ecenterdirect.com/?home=2",
    "website": "https://www.rccd.edu/community/ed/Pages/index.aspx",
    "phoneNumber": "(951) 571-6255",
    "socialMedia": "LinkedIn and Facebook"
  },
  {
    "id": 60,
    "name": "Sacramento MBDA Export Center",
    "languages": [
      "English"
    ],
    "geographicAreas": "Alameda, Alpine, Amador, Butte, Calaveras, Colusa, Contra Costa, Del Norte, El Dorado, Fresno, Glenn, Humboldt, Imperial, Inyo, Kern, Kings, Klamath, Lake, Lassen, Los Angeles, Madera, Marin, Mariposa, Mendocino, Merced, Modoc, Mono, Monterey, Napa, Nevada, Orange, Placer, Plumas, Riverside, Sacramento, San Benito, San Bernardino, San Diego, San Francisco, San Joaquin, San Luis Obispo, San Mateo, Santa Barbara, Santa Clara, Santa Cruz, Shasta, Sierra, Siskiyou, Solano, Sonoma, Stanislaus, Sutter, Tehama, Trinity, Tulare, Tuolumne, Ventura, Yolo, Yuba",
    "hasStatewideService": true,
    "specificCommunities": [
      4
    ],
    "areasOfService": [
      1,
      2,
      3,
      4,
      8,
      5,
      6,
      10,
      12
    ],
    "streetAddress": "2331 Alhambra Blvd. Suite 100",
    "city": "Sacramento",
    "county": "Sacramento",
    "zipCode": 95817,
    "fullAddress": "2331 Alhambra Blvd. Suite 100 Sacramento, CA 95817",
    "latitude": 38.5572254,
    "longitude": -121.4716408,
    "email": "sacramentombda@calasiancc.org",
    "website": "https://www.sacramentombda.com",
    "phoneNumber": "(916) 446-7883",
    "socialMedia": "(Twitter) @SacramentoMBDA     (Facebook) @SacramentoMBDA  (LinkedIn) www.linkedin.com/company/sacramentombda"
  },
  {
    "id": 61,
    "name": "San Diego & Imperial SBDC Network",
    "languages": [
      "Spanish",
      "Mandarin",
      "Cantonese",
      "Tagalog",
      "Vietnamese",
      "Korean",
      "Farsi",
      "Arabic",
      "Hmong",
      "English",
      "Japanese",
      "Hindi",
      "Portuguese",
      "American Sign",
      "French"
    ],
    "geographicAreas": "Imperial, San Diego",
    "hasStatewideService": false,
    "specificCommunities": [],
    "areasOfService": [
      1,
      2,
      3,
      4,
      8,
      5,
      6,
      9,
      10,
      11,
      12,
      13,
      7
    ],
    "streetAddress": "880 National City Blvd",
    "city": "National City",
    "county": "San Diego",
    "zipCode": 91950,
    "fullAddress": "880 National City Blvd National City, CA 91950",
    "latitude": 32.6751517,
    "longitude": -117.1069099,
    "email": "sdsbdc@swccd.edu",
    "website": "https://www.sdivsbdc.org",
    "phoneNumber": "(619) 482-6391",
    "socialMedia": "Twitter: @SDSBDCNetwork Facebook: @SDSBDCNetwork"
  },
  {
    "id": 62,
    "name": "San Diego and Imperial Women's Business Center",
    "languages": [
      "Spanish",
      "English"
    ],
    "geographicAreas": "Imperial, San Diego",
    "hasStatewideService": false,
    "specificCommunities": [
      2
    ],
    "areasOfService": [
      1,
      2,
      4,
      8,
      5,
      12,
      13
    ],
    "streetAddress": "880 National City Blvd",
    "city": "National City",
    "county": "San Diego",
    "zipCode": 91950,
    "fullAddress": "880 National City Blvd National City, CA 91950",
    "latitude": 32.6751517,
    "longitude": -117.1069099,
    "email": "kibarra@swccd.edu",
    "website": "https://www.SanDiegoWBC.org",
    "phoneNumber": "(619) 216-6719",
    "socialMedia": "Twitter, Instagram, Facebook: @SanDiegoWBC"
  },
  {
    "id": 63,
    "name": "San Diego, Orange, & Imperial PTAC",
    "languages": [
      "English"
    ],
    "geographicAreas": "Imperial, Orange, San Diego",
    "hasStatewideService": false,
    "specificCommunities": [],
    "areasOfService": [
      1,
      2,
      6
    ],
    "streetAddress": "880 National City Blvd. Ste. 7100",
    "city": "National City",
    "county": "San Diego",
    "zipCode": 91950,
    "fullAddress": "880 National City Blvd. Ste. 7100 National City, CA 91950",
    "latitude": 32.6751517,
    "longitude": -117.1069099,
    "email": "swcptac@swccd.edu",
    "website": "https://www.socalptac.org",
    "phoneNumber": "(619) 216-6671",
    "socialMedia": "https://www.facebook.com/socalPTAC/, https://twitter.com/socalptac, https://www.linkedin.com/company/socalptac"
  },
  {
    "id": 64,
    "name": "San Francisco SBDC",
    "languages": [
      "Spanish",
      "Mandarin",
      "Cantonese",
      "Vietnamese",
      "Korean",
      "Armenian",
      "English",
      "French"
    ],
    "geographicAreas": "San Francisco",
    "hasStatewideService": false,
    "specificCommunities": [],
    "areasOfService": [
      1,
      2,
      3,
      4,
      8,
      5,
      12,
      13,
      7
    ],
    "streetAddress": "1650 Mission St., Suite 101A",
    "city": "San Francisco",
    "county": "San Francisco",
    "zipCode": 94103,
    "fullAddress": "1650 Mission St., Suite 101A San Francisco, CA 94103",
    "latitude": 37.7719827,
    "longitude": -122.4195611,
    "email": "jacques.bidjima@sfgov.org",
    "website": "https://www.sfsbdc.org/",
    "phoneNumber": "(415) 937-7232",
    "socialMedia": "https://twitter.com/SanFranSBDC;  https://www.facebook.com/San-Francisco-SBDC-1386090498282523/; https://www.linkedin.com/company/sanfranciscosmallbusinessdevelopmentcenter"
  },
  {
    "id": 65,
    "name": "San Joaquin Delta College SBDC",
    "languages": [
      "Spanish",
      "English"
    ],
    "geographicAreas": "San Joaquin, Calaveras, Amador, Alpine",
    "hasStatewideService": false,
    "specificCommunities": [],
    "areasOfService": [
      1,
      2,
      3,
      5,
      6,
      12,
      13,
      7
    ],
    "streetAddress": "56 S. Lincoln St.",
    "city": "Stockton",
    "county": "San Joaquin",
    "zipCode": 95203,
    "fullAddress": "56 S. Lincoln St. Stockton, CA 95203",
    "latitude": 37.9509138,
    "longitude": -121.296878,
    "email": "sbdc@deltacollege.edu",
    "website": "https://www.sanjoaquinsbdc.org/",
    "phoneNumber": "(209) 954-5089",
    "socialMedia": "https://www.facebook.com/San-Joaquin-Delta-College-Small-Business-Development-Center-160800523944272"
  },
  {
    "id": 66,
    "name": "San Joaquin Valley Rural Development Center",
    "languages": [
      "Spanish",
      "English"
    ],
    "geographicAreas": "Fresno, Kern, Kings, Madera, Merced, San Joaquin, Stanislaus, Tulare",
    "hasStatewideService": false,
    "specificCommunities": [],
    "areasOfService": [
      1,
      2,
      3,
      4,
      8,
      6,
      9,
      12,
      13
    ],
    "streetAddress": "550 E Shaw Ave, Suite 230",
    "city": "Fresno",
    "county": "Fresno",
    "zipCode": 93710,
    "fullAddress": "550 E Shaw Ave, Suite 230 Fresno, CA 93710",
    "latitude": 36.8092857,
    "longitude": -119.7783412,
    "email": "jorgL@csufresno.edu",
    "website": "https://www.sjvrdc.com",
    "phoneNumber": "(559) 278-0718",
    "socialMedia": "Facebook: @SJVRDCFresnoState"
  },
  {
    "id": 67,
    "name": "San Jose MBDA Business Center",
    "languages": [
      "Spanish",
      "Mandarin",
      "Cantonese",
      "Vietnamese",
      "English",
      "Hindi"
    ],
    "geographicAreas": "Alameda, Contra Costa, Fresno, Kern, Kings, Madera, Marin, Mariposa, Merced, Monterey, Napa, San Benito, San Francisco, San Mateo, Santa Clara, Santa Cruz, Solano, Sonoma, Tulare",
    "hasStatewideService": false,
    "specificCommunities": [
      4
    ],
    "areasOfService": [
      1,
      2,
      4,
      5,
      6,
      9
    ],
    "streetAddress": "3031 Tisch Way, Suite 80",
    "city": "San Jose",
    "county": "Santa Clara",
    "zipCode": 95128,
    "fullAddress": "3031 Tisch Way, Suite 80 San Jose, CA 95128",
    "latitude": 37.3177477,
    "longitude": -121.9477554,
    "email": "info@sanjosembdacenter.com",
    "website": "https://www.asianinc.org/businesscenters/sanjose",
    "phoneNumber": "(408) 998-8058",
    "socialMedia": "@asianinc"
  },
  {
    "id": 68,
    "name": "San Mateo SBDC",
    "languages": [
      "Spanish",
      "Mandarin",
      "Cantonese",
      "Tagalog",
      "Vietnamese",
      "Farsi",
      "English",
      "Japanese",
      "Hindi",
      "Punjabi",
      "Portuguese",
      "American Sign",
      "French"
    ],
    "geographicAreas": "San Mateo",
    "hasStatewideService": false,
    "specificCommunities": [],
    "areasOfService": [
      1,
      2,
      3,
      4,
      8,
      5,
      6,
      9,
      10,
      11,
      12,
      13,
      7
    ],
    "streetAddress": "Administrative office is located remotely",
    "city": "Administrative office is located remotely",
    "county": "San Mateo",
    "zipCode": 94404,
    "fullAddress": "Administrative office is located remotely Administrative office is located remotely, CA 94404",
    "latitude": 37.5584469,
    "longitude": -122.2799822,
    "email": "info@sanmateosbdc.org",
    "website": "https://sanmateosbdc.org",
    "phoneNumber": "(650) 395-5130",
    "socialMedia": "California SBDC"
  },
  {
    "id": 69,
    "name": "Santa Cruz SBDC",
    "languages": [
      "Spanish",
      "English"
    ],
    "geographicAreas": "Santa Cruz",
    "hasStatewideService": false,
    "specificCommunities": [],
    "areasOfService": [
      1,
      2,
      4,
      8,
      5,
      6,
      9,
      10,
      11,
      12,
      13,
      7
    ],
    "streetAddress": "6500 Soquel Drive,",
    "city": "Aptos",
    "county": "Santa Cruz",
    "zipCode": 95060,
    "fullAddress": "6500 Soquel Drive, Aptos, CA 95060",
    "latitude": 36.9876108,
    "longitude": -121.9259014,
    "email": "sbdc@cabrillo.edu",
    "website": "https://santacruzsbdc.org",
    "phoneNumber": "(831) 479-6136",
    "socialMedia": "https://www.facebook.com/santacruzsbdc/?hc_ref=SEARCH&fref=nf"
  },
  {
    "id": 70,
    "name": "Shasta-Cascade SBDC",
    "languages": [
      "Spanish",
      "Farsi",
      "English",
      "Hindi",
      "Punjabi"
    ],
    "geographicAreas": "Shasta, Trinity",
    "hasStatewideService": false,
    "specificCommunities": [],
    "areasOfService": [
      1,
      2,
      3,
      4,
      8,
      5,
      6,
      9,
      10,
      11,
      12,
      13,
      7
    ],
    "streetAddress": "5800 Airport Rd",
    "city": "Redding",
    "county": "Shasta",
    "zipCode": 96002,
    "fullAddress": "5800 Airport Rd Redding, CA 96002",
    "latitude": 40.5213546,
    "longitude": -122.3044517,
    "email": "emily@norcalsbdc.org",
    "website": "https://www.sbdcsc.org/",
    "phoneNumber": "(530) 222-8323",
    "socialMedia": "www.facebook.com/ShastaSBDC, https://twitter.com/sbdcshasta, https://www.linkedin.com/in/sbdc-shasta-cascade-0659758b, https://bit.ly/3eMir61"
  },
  {
    "id": 71,
    "name": "Sierra SBDC",
    "languages": [
      "Spanish",
      "English"
    ],
    "geographicAreas": "Nevada, Placer, El Dorado, Modoc, Sierra, Plumas, Lassen",
    "hasStatewideService": false,
    "specificCommunities": [],
    "areasOfService": [
      1,
      2,
      3,
      4,
      8,
      5,
      9,
      11,
      12,
      13
    ],
    "streetAddress": "10183 Truckee Airport Rd,",
    "city": "Truckee",
    "county": "Nevada",
    "zipCode": 96161,
    "fullAddress": "10183 Truckee Airport Rd,  Truckee, CA 96161",
    "latitude": 39.3168007,
    "longitude": -120.1462009,
    "email": "info@sierrasbdc.com",
    "website": "https://www.sierrasbdc.com/",
    "phoneNumber": "(530) 582-5022",
    "socialMedia": "Facebook, Instagram, Twitter"
  },
  {
    "id": 72,
    "name": "Small Business Transportation Resource Center Southwest Region",
    "languages": [
      "English"
    ],
    "geographicAreas": "Alameda, Alpine, Amador, Butte, Calaveras, Colusa, Contra Costa, Del Norte, El Dorado, Fresno, Glenn, Humboldt, Imperial, Inyo, Kern, Kings, Klamath, Lake, Lassen, Los Angeles, Madera, Marin, Mariposa, Mendocino, Merced, Modoc, Mono, Monterey, Napa, Nevada, Orange, Placer, Plumas, Riverside, Sacramento, San Benito, San Bernardino, San Diego, San Francisco, San Joaquin, San Luis Obispo, San Mateo, Santa Barbara, Santa Clara, Santa Cruz, Shasta, Sierra, Siskiyou, Solano, Sonoma, Stanislaus, Sutter, Tehama, Trinity, Tulare, Tuolumne, Ventura, Yolo, Yuba",
    "hasStatewideService": true,
    "specificCommunities": [],
    "areasOfService": [
      1,
      2,
      3,
      4,
      8,
      5,
      6,
      12,
      13
    ],
    "streetAddress": "2331 Alhambra Blvd. Suite 100",
    "city": "Sacramento",
    "county": "Sacramento",
    "zipCode": 95817,
    "fullAddress": "2331 Alhambra Blvd. Suite 100 Sacramento, CA 95817",
    "latitude": 38.5572254,
    "longitude": -121.4716408,
    "email": "sbtrc@southwestregionsbtrc.us",
    "website": "https://www.sbtrc-sw.com",
    "phoneNumber": "(916) 443-5957",
    "socialMedia": "(Facebook) https://www.facebook.com/SouthwestSBTRC  (LinkedIn) https://www.linkedin.com/company/southwestsbtrc"
  },
  {
    "id": 73,
    "name": "Solano SBDC",
    "languages": [
      "Spanish",
      "Tagalog"
    ],
    "geographicAreas": "Solano",
    "hasStatewideService": false,
    "specificCommunities": [],
    "areasOfService": [
      1,
      2,
      3,
      4,
      8,
      5,
      6,
      9,
      11,
      12,
      13,
      7
    ],
    "streetAddress": "500 Chadbourne Road",
    "city": "Fairfield",
    "county": "Solano",
    "zipCode": 94534,
    "fullAddress": "500 Chadbourne Road Fairfield, CA 94534",
    "latitude": 38.2358527,
    "longitude": -122.0818595,
    "email": "info@solanosbdc.org",
    "website": "https://solanosbdc.org",
    "phoneNumber": "(707) 863-3554",
    "socialMedia": "Facebook, and Twitter"
  },
  {
    "id": 74,
    "name": "South San Diego SBDC",
    "languages": [
      "Spanish"
    ],
    "geographicAreas": "San Diego",
    "hasStatewideService": false,
    "specificCommunities": [],
    "areasOfService": [
      1,
      2,
      3,
      4,
      8,
      5,
      9,
      11,
      12,
      13,
      7
    ],
    "streetAddress": "880 National City Blvd",
    "city": "National City",
    "county": "San Diego",
    "zipCode": 91950,
    "fullAddress": "880 National City Blvd National City, CA 91950",
    "latitude": 32.6751517,
    "longitude": -117.1069099,
    "email": "sdsbdc@swccd.edu",
    "website": "https://www.sdivsbdc.org",
    "phoneNumber": "(619) 482-6391",
    "socialMedia": "https://www.facebook.com/sandiegosbdc"
  },
  {
    "id": 75,
    "name": "Tech Futures Group",
    "languages": [
      "Spanish",
      "English"
    ],
    "geographicAreas": "Alameda, Alpine, Amador, Butte, Calaveras, Colusa, Contra Costa, Del Norte, El Dorado, Glenn, Humboldt, Lake, Lassen, Marin, Mendocino, Modoc, Napa, Nevada, Placer, Plumas, Sacramento, San Francisco, San Joaquin, San Mateo, Santa Clara, Santa Cruz, Shasta, Sierra, Siskiyou, Solano, Sonoma, Sutter, Tehama, Trinity, Yolo, Yuba",
    "hasStatewideService": false,
    "specificCommunities": [],
    "areasOfService": [
      1,
      2,
      3,
      8,
      5,
      6,
      9,
      11,
      12,
      13
    ],
    "streetAddress": "2120 University Ave",
    "city": "Berkeley",
    "county": "Alameda",
    "zipCode": 94704,
    "fullAddress": "2120 University Ave Berkeley , CA 94704",
    "latitude": 37.8720142,
    "longitude": -122.2675049,
    "email": "Info@techfuturesgroup.org",
    "website": "https://www.techfuturesgroup.org/",
    "phoneNumber": "(415) 494-7232",
    "socialMedia": "Twitter: @TechFuturesGrp"
  },
  {
    "id": 76,
    "name": "The Brink SBDC at University of San Diego",
    "languages": [
      "Spanish",
      "English"
    ],
    "geographicAreas": "San Diego, Imperial",
    "hasStatewideService": false,
    "specificCommunities": [],
    "areasOfService": [
      1,
      2,
      3,
      4,
      8,
      9
    ],
    "streetAddress": "5998 Alcala Park",
    "city": "San Diego",
    "county": "San Diego",
    "zipCode": 92110,
    "fullAddress": "5998 Alcala Park San Diego, CA 92110",
    "latitude": 32.7716583,
    "longitude": -117.1915679,
    "email": "sbdc@sandiego.edu",
    "website": "https://www.sdivsbdc.org",
    "phoneNumber": "(619) 260-4547",
    "socialMedia": "https://www.facebook.com/theBrinkSBDC"
  },
  {
    "id": 77,
    "name": "UC Merced SBDC",
    "languages": [
      "Spanish",
      "English"
    ],
    "geographicAreas": "Stanislaus, Tuolomne, Mariposa, Merced, Madera, Fresno, Tulare, Kings, Kern, Inyo, Mono, San Luis Obispo, San Benito, Monterey",
    "hasStatewideService": false,
    "specificCommunities": [],
    "areasOfService": [
      1,
      2,
      3,
      4,
      8,
      5,
      6,
      9,
      10,
      11,
      12,
      13,
      7
    ],
    "streetAddress": "1735 M St; Suite 111",
    "city": "Merced",
    "county": "Merced",
    "zipCode": 95340,
    "fullAddress": "1735 M St; Suite 111 Merced, CA 95340",
    "latitude": 37.3028197,
    "longitude": -120.4846359,
    "email": "jtorres130@ucmerced.edu",
    "website": "https://ucmercedsbdc.com/",
    "phoneNumber": "(209) 228-3506",
    "socialMedia": "https://www.facebook.com/UCMercedSBDC"
  },
  {
    "id": 78,
    "name": "UCI SBDC @ Beall Applied Innovation Center",
    "languages": [
      "English"
    ],
    "geographicAreas": "Orange",
    "hasStatewideService": false,
    "specificCommunities": [],
    "areasOfService": [
      1,
      2,
      3,
      5,
      9,
      12,
      13
    ],
    "streetAddress": "5141 California Avenue",
    "city": "Irvine",
    "county": "Orange",
    "zipCode": 92697,
    "fullAddress": "5141 California Avenue, Irvine, CA 92697",
    "latitude": 33.6524484,
    "longitude": -117.831624,
    "email": "julie.cranston@uci.edu",
    "website": "https://ociesmallbusiness.org",
    "phoneNumber": "(949) 824-6835",
    "socialMedia": "@ociesbdc"
  },
  {
    "id": 79,
    "name": "University of La Verne SBDC",
    "languages": [
      "English"
    ],
    "geographicAreas": "Los Angeles",
    "hasStatewideService": false,
    "specificCommunities": [],
    "areasOfService": [
      1,
      2,
      3,
      4,
      8,
      5,
      6,
      9,
      12,
      13,
      7
    ],
    "streetAddress": "2180 Third Street",
    "city": "La Verne",
    "county": "Los Angeles",
    "zipCode": 91750,
    "fullAddress": "2180 Third Street La Verne, CA 91750",
    "latitude": 34.0998387,
    "longitude": -117.7689012,
    "email": "SBDC@laverne.edu",
    "website": "https://www.lavernesbdc.org",
    "phoneNumber": "(909) 448-1567",
    "socialMedia": "https://www.facebook.com/lavernesbdc --- https://www.youtube.com/c/universityoflavernesbdc --- https://www.linkedin.com/company/lavernesbdc"
  },
  {
    "id": 80,
    "name": "Valley Community SBDC",
    "languages": [
      "Spanish",
      "Armenian",
      "Hmong",
      "Punjabi"
    ],
    "geographicAreas": "Fresno, Madera, Tulare, Kings",
    "hasStatewideService": false,
    "specificCommunities": [],
    "areasOfService": [
      1,
      2,
      3,
      4,
      8,
      6,
      10,
      12,
      13
    ],
    "streetAddress": "390B West Fir Avenue #300",
    "city": "Clovis",
    "county": "Fresno",
    "zipCode": 93611,
    "fullAddress": "390B West Fir Avenue #300 Clovis, CA 93611",
    "latitude": 36.8379064,
    "longitude": -119.7175376,
    "email": "VCSBDC@cloviscollege.edu",
    "website": "https://www.valleycommunitysbdc.com",
    "phoneNumber": "(559) 324-6403",
    "socialMedia": "@valleycommunitysbdc"
  },
  {
    "id": 81,
    "name": "Valley Sierra SBDC",
    "languages": [
      "Spanish"
    ],
    "geographicAreas": "Stanislaus and Tuolomne",
    "hasStatewideService": false,
    "specificCommunities": [],
    "areasOfService": [
      1,
      2,
      3,
      4,
      8,
      5,
      6,
      9,
      10,
      11,
      12,
      13,
      7
    ],
    "streetAddress": "1625 I Street",
    "city": "Modesto",
    "county": "Stanislaus",
    "zipCode": 95350,
    "fullAddress": "1625 I Street Modesto, CA 95350",
    "latitude": 37.6446385,
    "longitude": -120.9928892,
    "email": "kwinders@opportunitystanislaus.com",
    "website": "https://www.ValleySierraSBDC.com",
    "phoneNumber": "(209) 422-6416",
    "socialMedia": "FB =https://www.facebook.com/ValleySierraSBDC , IG and twitter"
  },
  {
    "id": 82,
    "name": "Veterans Business Outreach Center",
    "languages": [
      "English",
      "Russian"
    ],
    "geographicAreas": "Alameda, Alpine, Amador, Butte, Calaveras, Colusa, Contra Costa, Del Norte, El Dorado, Fresno, Glenn, Humboldt, Inyo, Kern, Kings, Klamath, Lake, Lassen, Madera, Marin, Mariposa, Mendocino, Merced, Modoc, Mono, Monterey, Napa, Nevada, Placer, Plumas, Sacramento, San Francisco, San Joaquin, San Luis Obispo, San Mateo, Santa Clara, Santa Cruz, Shasta, Sierra, Siskiyou, Solano, Sonoma, Stanislaus, Sutter, Tehama, Trinity, Tulare, Tuolumne, Yolo, Yuba",
    "hasStatewideService": true,
    "specificCommunities": [
      5
    ],
    "areasOfService": [
      1,
      2,
      4,
      8,
      5,
      6,
      9,
      12,
      13,
      7
    ],
    "streetAddress": "3831 N Freeway Blvd. Suite 105",
    "city": "Sacramento",
    "county": "Sacramento",
    "zipCode": 95834,
    "fullAddress": "3831 N Freeway Blvd. Suite 105 Sacramento, CA 95834",
    "latitude": 38.6407061,
    "longitude": -121.4864214,
    "email": "admin@vbocix.org",
    "website": "https://www.vbocix.org",
    "phoneNumber": "(916) 527-8400",
    "socialMedia": "@VBOCIX,  https://www.facebook.com/vbocix, #vbocix"
  },
  {
    "id": 83,
    "name": "Women's Business Center at JEDI",
    "languages": [
      "English"
    ],
    "geographicAreas": "Siskiyou",
    "hasStatewideService": false,
    "specificCommunities": [
      2
    ],
    "areasOfService": [
      1,
      2,
      4,
      8,
      5,
      6,
      10,
      12,
      13
    ],
    "streetAddress": "205 Chestnut Street",
    "city": "Mt Shasta",
    "county": "Siskiyou",
    "zipCode": 96067,
    "fullAddress": "205 Chestnut Street Mt Shasta, CA 96067",
    "latitude": 41.3135852,
    "longitude": -122.3114344,
    "email": "info@e-jedi.org",
    "website": "https://www.e-jedi.org",
    "phoneNumber": "(530) 319-8560",
    "socialMedia": "Women's Business Center at JEDI"
  },
  {
    "id": 84,
    "name": "Women's Economic Ventures Women's Business Center - Santa Barbara",
    "languages": [
      "Spanish",
      "English"
    ],
    "geographicAreas": "Santa Barbara",
    "hasStatewideService": false,
    "specificCommunities": [
      2
    ],
    "areasOfService": [
      1,
      2,
      3,
      4,
      8,
      5,
      12,
      13,
      7
    ],
    "streetAddress": "333 South Salinas Street",
    "city": "Santa Barbara",
    "county": "Santa Barbara",
    "zipCode": 93103,
    "fullAddress": "333 South Salinas Street  Santa Barbara, CA 93103",
    "latitude": 34.423559,
    "longitude": -119.668479,
    "email": "info@wevonline.org",
    "website": "https://WWW.WEVONLINE.ORG",
    "phoneNumber": "(805) 965-6073",
    "socialMedia": "www.facebook.com/wevenespanol; www.facebook.com/WomensEconomicVentures; www.instagram.com/wevenespanol; www.instagram.com/womenseconomicventures"
  },
  {
    "id": 85,
    "name": "Women's Economic Ventures Women's Business Center - Ventura",
    "languages": [
      "Spanish",
      "English"
    ],
    "geographicAreas": "Ventura",
    "hasStatewideService": false,
    "specificCommunities": [
      2
    ],
    "areasOfService": [
      1,
      2,
      3,
      4,
      8,
      5,
      12,
      13,
      7
    ],
    "streetAddress": "290 Maple Court Suite 268",
    "city": "Ventura",
    "county": "Ventura",
    "zipCode": 93003,
    "fullAddress": "290 Maple Court Suite 268 Ventura, CA 93003",
    "latitude": 34.2697041,
    "longitude": -119.2448517,
    "email": "info@wevonline.org",
    "website": "https://WWW.WEVONLINE.ORG",
    "phoneNumber": "(805) 965-6073",
    "socialMedia": "www.facebook.com/wevenespanol; www.facebook.com/WomensEconomicVentures; www.instagram.com/wevenespanol; www.instagram.com/womenseconomicventures"
  }
]